[
  {
    "name": "حافة العالم",
    "location": "الرياض",
    "type": "جبل",
    "latitude": 24.944854,
    "longitude": 45.992097,
    "rating": 4.9,
    "numberOfRatings": 450,
    "imageURL": "https://images.unsplash.com/photo-1576487248805-cf45f6bcc67f?q=80&w=1200&auto=format&fit=crop",
    "aiInsight": "جوهرة جيولوجية مذهلة توفر إطلالات بانورامية لا مثيل لها. مثالية للتخييم في وادي الأكاسيا المجاور والاستمتاع بغروب الشمس الساحر.",
    "bortleScale": 3,
    "isProOnly": false
  },
  {
    "name": "وادي الديسة",
    "location": "تبوك",
    "type": "وادي",
    "latitude": 27.604,
    "longitude": 36.431,
    "rating": 4.9,
    "numberOfRatings": 280,
    "imageURL": "https://images.unsplash.com/photo-1563722791-030f81d86d64?q=80&w=1200&auto=format&fit=crop",
    "aiInsight": "واحة خضراء وسط الجبال الشاهقة. يتميز بينابيع المياه العذبة وأشجار النخيل. تجربة تخييم هادئة وفريدة من نوعها.",
    "bortleScale": 1,
    "isProOnly": true
  },
  {
    "name": "جبال الفيل (العلا)",
    "location": "العلا",
    "type": "تراث",
    "latitude": 26.697,
    "longitude": 37.994,
    "rating": 5.0,
    "numberOfRatings": 620,
    "imageURL": "https://images.unsplash.com/photo-1545155708-301287e07eb2?q=80&w=1200&auto=format&fit=crop",
    "aiInsight": "أيقونة العلا الطبيعية. استمتع بتجربة تخييم فاخرة تحت النجوم بجوار هذا التشكيل الصخري العظيم مع أجواء ساحرة.",
    "bortleScale": 2,
    "isProOnly": true
  },
  {
    "name": "شاطئ شرما",
    "location": "نيوم",
    "type": "ساحل",
    "latitude": 28.035975,
    "longitude": 35.227097,
    "rating": 4.8,
    "numberOfRatings": 190,
    "imageURL": "https://images.unsplash.com/photo-1616088219502-86f7f6d226a0?q=80&w=1200&auto=format&fit=crop",
    "aiInsight": "من أجمل شواطئ البحر الأحمر بكرًا. رمال بيضاء ومياه فيروزية صافية. مثالي للتخييم الشاطئي والأنشطة البحرية.",
    "bortleScale": 2,
    "isProOnly": false
  },
  {
    "name": "جبل السودة",
    "location": "أبها",
    "type": "جبل",
    "latitude": 18.275,
    "longitude": 42.361,
    "rating": 4.9,
    "numberOfRatings": 310,
    "imageURL": "https://images.unsplash.com/photo-1589820296156-2454dd33c660?q=80&w=1200&auto=format&fit=crop",
    "aiInsight": "أعلى قمة في المملكة العربية السعودية. غابات العرعر والغيوم التي تلامس الأرض تجعل من التخييم هنا تجربة لا تُنسى في الأجواء الباردة.",
    "bortleScale": 4,
    "isProOnly": false
  },
  {
    "name": "وادي طيب الاسم",
    "location": "تبوك",
    "type": "وادي",
    "latitude": 28.566667,
    "longitude": 34.833333,
    "rating": 4.7,
    "numberOfRatings": 150,
    "imageURL": "https://images.unsplash.com/photo-1629215049588-e215e0a0f023?q=80&w=1200&auto=format&fit=crop",
    "aiInsight": "ممر جبلي ضيق ينتهي بمصب في البحر الأحمر. جدران الجرانيت الشاهقة توفر ظلاً طبيعيًا ومناظر خلابة للمغامرين.",
    "bortleScale": 1,
    "isProOnly": true
  },
  {
    "name": "جزر أملج",
    "location": "أملج",
    "type": "جزيرة",
    "latitude": 25.030,
    "longitude": 37.260,
    "rating": 4.9,
    "numberOfRatings": 220,
    "imageURL": "https://images.unsplash.com/photo-1590523277543-a94d2e4eb00b?q=80&w=1200&auto=format&fit=crop",
    "aiInsight": "تُلقب بمالديف السعودية. مياه صافية وشعاب مرجانية غنية. التخييم بالقرب من الشاطئ يوفر إطلالات ساحرة وهدوء تام.",
    "bortleScale": 1,
    "isProOnly": true
  },
  {
    "name": "جبل شدا الأعلى",
    "location": "الباحة",
    "type": "جبل",
    "latitude": 19.8627,
    "longitude": 41.3014,
    "rating": 4.8,
    "numberOfRatings": 130,
    "imageURL": "https://images.unsplash.com/photo-1589394815804-964ed0be2eb5?q=80&w=1200&auto=format&fit=crop",
    "aiInsight": "محمية طبيعية فريدة تتميز بتشكيلات صخرية غريبة وكهوف تم استخدامها كمساكن. تنوع بيولوجي مذهل وجو معتدل.",
    "bortleScale": 2,
    "isProOnly": false
  }
]
